{
  "places": [
    {"id":"p001","name":"Chennai International Airport","type":"airport","district":"Chennai","city":"Chennai","lat":12.9941,"lng":80.1709,"description":"Major international airport, busiest in South India"},
    {"id":"p002","name":"Coimbatore International Airport","type":"airport","district":"Coimbatore","city":"Coimbatore","lat":11.0300,"lng":77.0435,"description":"Second busiest airport in Tamil Nadu"},
    {"id":"p003","name":"Madurai Airport","type":"airport","district":"Madurai","city":"Madurai","lat":9.8345,"lng":78.0933,"description":"Airport serving southern Tamil Nadu"},
    {"id":"p004","name":"Tiruchirappalli Airport","type":"airport","district":"Tiruchirappalli","city":"Trichy","lat":10.7654,"lng":78.7099,"description":"International airport in central TN"},
    {"id":"p005","name":"Thoothukudi Airport","type":"airport","district":"Thoothukudi","city":"Thoothukudi","lat":8.7243,"lng":77.9838,"description":"Airport serving Thoothukudi region"},
    {"id":"p006","name":"Salem Airport","type":"airport","district":"Salem","city":"Salem","lat":11.7833,"lng":78.0655,"description":"Domestic airport in Salem"},

    {"id":"p010","name":"Meenakshi Amman Temple","type":"temple","district":"Madurai","city":"Madurai","lat":9.9195,"lng":78.1193,"description":"Historic Hindu temple, UNESCO tentative list"},
    {"id":"p011","name":"Brihadeeswarar Temple","type":"temple","district":"Thanjavur","city":"Thanjavur","lat":10.7828,"lng":79.1318,"description":"UNESCO World Heritage, Chola dynasty masterpiece"},
    {"id":"p012","name":"Nataraja Temple","type":"temple","district":"Cuddalore","city":"Chidambaram","lat":11.3993,"lng":79.6933,"description":"Ancient Shiva temple, Pancha Bhootha Stalam"},
    {"id":"p013","name":"Arunachalesvara Temple","type":"temple","district":"Tiruvannamalai","city":"Tiruvannamalai","lat":12.2314,"lng":79.0670,"description":"One of the largest temples in India"},
    {"id":"p014","name":"Murugan Temple, Palani","type":"temple","district":"Dindigul","city":"Palani","lat":10.4480,"lng":77.5237,"description":"Arupadai Veedu, major Murugan shrine"},
    {"id":"p015","name":"Murugan Temple, Tiruchendur","type":"temple","district":"Thoothukudi","city":"Tiruchendur","lat":8.4977,"lng":78.1224,"description":"Seaside Murugan temple, Arupadai Veedu"},
    {"id":"p016","name":"Kanyakumari Temple","type":"temple","district":"Kanyakumari","city":"Kanyakumari","lat":8.0883,"lng":77.5385,"description":"Goddess temple at India's southern tip"},
    {"id":"p017","name":"Ramanathaswamy Temple","type":"temple","district":"Ramanathapuram","city":"Rameswaram","lat":9.2885,"lng":79.3129,"description":"One of the Char Dham pilgrimage sites"},
    {"id":"p018","name":"Ranganathaswamy Temple, Srirangam","type":"temple","district":"Tiruchirappalli","city":"Srirangam","lat":10.8627,"lng":78.6871,"description":"Largest functioning Hindu temple in the world"},
    {"id":"p019","name":"Kapaleeshwarar Temple","type":"temple","district":"Chennai","city":"Chennai","lat":13.0339,"lng":80.2696,"description":"Ancient Shiva temple in Mylapore"},
    {"id":"p020","name":"Parthasarathy Temple","type":"temple","district":"Chennai","city":"Chennai","lat":13.0550,"lng":80.2780,"description":"8th century Vishnu temple in Triplicane"},
    {"id":"p021","name":"Marudhamalai Temple","type":"temple","district":"Coimbatore","city":"Coimbatore","lat":11.0453,"lng":76.8980,"description":"Hilltop Murugan temple near Coimbatore"},
    {"id":"p022","name":"Thirumalai Nayakkar Mahal","type":"temple","district":"Madurai","city":"Madurai","lat":9.9195,"lng":78.1230,"description":"17th century Nayak palace"},
    {"id":"p023","name":"Thillai Nataraja Temple","type":"temple","district":"Cuddalore","city":"Chidambaram","lat":11.3993,"lng":79.6933,"description":"Famous for Chidambaram Rahasyam"},

    {"id":"p030","name":"Chennai Central Railway Station","type":"railway","district":"Chennai","city":"Chennai","lat":13.0827,"lng":80.2772,"description":"Major railway terminus, one of the oldest in India"},
    {"id":"p031","name":"Chennai Egmore Railway Station","type":"railway","district":"Chennai","city":"Chennai","lat":13.0786,"lng":80.2625,"description":"Second major terminus serving southern routes"},
    {"id":"p032","name":"Coimbatore Junction","type":"railway","district":"Coimbatore","city":"Coimbatore","lat":11.0014,"lng":76.9638,"description":"Important junction in western TN"},
    {"id":"p033","name":"Madurai Junction","type":"railway","district":"Madurai","city":"Madurai","lat":9.9391,"lng":78.1218,"description":"Major junction serving southern TN"},
    {"id":"p034","name":"Salem Junction","type":"railway","district":"Salem","city":"Salem","lat":11.6629,"lng":78.1618,"description":"Important junction in central TN"},
    {"id":"p035","name":"Trichy Junction","type":"railway","district":"Tiruchirappalli","city":"Trichy","lat":10.8148,"lng":78.6853,"description":"Major railway junction, central TN hub"},
    {"id":"p036","name":"Erode Junction","type":"railway","district":"Erode","city":"Erode","lat":11.3400,"lng":77.7233,"description":"Railway junction on main southern line"},
    {"id":"p037","name":"Tirunelveli Junction","type":"railway","district":"Tirunelveli","city":"Tirunelveli","lat":8.7281,"lng":77.7091,"description":"Junction serving deep southern TN"},
    {"id":"p038","name":"Thanjavur Junction","type":"railway","district":"Thanjavur","city":"Thanjavur","lat":10.7910,"lng":79.1380,"description":"Railway station in delta region"},
    {"id":"p039","name":"Katpadi Junction","type":"railway","district":"Vellore","city":"Katpadi","lat":12.9700,"lng":79.1450,"description":"Major junction near Vellore"},
    {"id":"p040","name":"Villupuram Junction","type":"railway","district":"Villupuram","city":"Villupuram","lat":11.9332,"lng":79.4921,"description":"Important junction connecting multiple lines"},

    {"id":"p050","name":"Rajiv Gandhi Government General Hospital","type":"hospital","district":"Chennai","city":"Chennai","lat":13.0721,"lng":80.2674,"description":"Largest government hospital in Tamil Nadu"},
    {"id":"p051","name":"CMC Vellore","type":"hospital","district":"Vellore","city":"Vellore","lat":12.9289,"lng":79.1360,"description":"Premier medical institution, nationally renowned"},
    {"id":"p052","name":"Government Rajaji Hospital, Madurai","type":"hospital","district":"Madurai","city":"Madurai","lat":9.9371,"lng":78.1264,"description":"Major government hospital serving southern TN"},
    {"id":"p053","name":"Coimbatore Medical College Hospital","type":"hospital","district":"Coimbatore","city":"Coimbatore","lat":11.0147,"lng":76.9629,"description":"Government medical college hospital"},
    {"id":"p054","name":"GH Trichy","type":"hospital","district":"Tiruchirappalli","city":"Trichy","lat":10.8033,"lng":78.6857,"description":"Major government hospital in Trichy"},
    {"id":"p055","name":"Government Mohan Kumaramangalam Hospital, Salem","type":"hospital","district":"Salem","city":"Salem","lat":11.6580,"lng":78.1490,"description":"Key government hospital in Salem"},
    {"id":"p056","name":"Government Hospital, Tirunelveli","type":"hospital","district":"Tirunelveli","city":"Tirunelveli","lat":8.7250,"lng":77.6950,"description":"Government hospital in Tirunelveli"},
    {"id":"p057","name":"Government Hospital, Thanjavur","type":"hospital","district":"Thanjavur","city":"Thanjavur","lat":10.7860,"lng":79.1400,"description":"District government hospital"},
    {"id":"p058","name":"Government Hospital, Erode","type":"hospital","district":"Erode","city":"Erode","lat":11.3430,"lng":77.7200,"description":"District headquarters hospital"},
    {"id":"p059","name":"Government Hospital, Dindigul","type":"hospital","district":"Dindigul","city":"Dindigul","lat":10.3650,"lng":77.9700,"description":"District government hospital"},

    {"id":"p070","name":"CMBT Chennai","type":"bus_stand","district":"Chennai","city":"Chennai","lat":13.0694,"lng":80.2000,"description":"Chennai Mofussil Bus Terminus, largest in Asia"},
    {"id":"p071","name":"Coimbatore Gandhipuram Bus Stand","type":"bus_stand","district":"Coimbatore","city":"Coimbatore","lat":11.0168,"lng":76.9680,"description":"Central bus stand of Coimbatore"},
    {"id":"p072","name":"Madurai Periyar Bus Stand","type":"bus_stand","district":"Madurai","city":"Madurai","lat":9.9252,"lng":78.1210,"description":"Main bus stand of Madurai city"},
    {"id":"p073","name":"Salem New Bus Stand","type":"bus_stand","district":"Salem","city":"Salem","lat":11.6550,"lng":78.1500,"description":"New bus stand of Salem"},
    {"id":"p074","name":"Trichy Central Bus Stand","type":"bus_stand","district":"Tiruchirappalli","city":"Trichy","lat":10.8080,"lng":78.6900,"description":"Central bus terminus of Trichy"},
    {"id":"p075","name":"Tirunelveli Bus Stand","type":"bus_stand","district":"Tirunelveli","city":"Tirunelveli","lat":8.7200,"lng":77.7580,"description":"Main bus stand serving deep south TN"},
    {"id":"p076","name":"Erode Bus Stand","type":"bus_stand","district":"Erode","city":"Erode","lat":11.3420,"lng":77.7150,"description":"Central bus terminus of Erode"},
    {"id":"p077","name":"Vellore Bus Stand","type":"bus_stand","district":"Vellore","city":"Vellore","lat":12.9180,"lng":79.1300,"description":"Main bus stand of Vellore"},
    {"id":"p078","name":"Thanjavur Bus Stand","type":"bus_stand","district":"Thanjavur","city":"Thanjavur","lat":10.7850,"lng":79.1400,"description":"Central bus terminus"},
    {"id":"p079","name":"Namakkal Bus Stand","type":"bus_stand","district":"Namakkal","city":"Namakkal","lat":11.2200,"lng":78.1700,"description":"Main bus terminus of Namakkal"},

    {"id":"p090","name":"IIT Madras","type":"college","district":"Chennai","city":"Chennai","lat":12.9916,"lng":80.2336,"description":"Premier engineering institution, ranked #1 in India"},
    {"id":"p091","name":"Anna University","type":"college","district":"Chennai","city":"Chennai","lat":13.0108,"lng":80.2354,"description":"Largest technical university in Tamil Nadu"},
    {"id":"p092","name":"Madras University","type":"college","district":"Chennai","city":"Chennai","lat":13.0636,"lng":80.2792,"description":"One of the oldest universities in India"},
    {"id":"p093","name":"PSG College of Technology","type":"college","district":"Coimbatore","city":"Coimbatore","lat":11.0243,"lng":77.0028,"description":"Premier engineering college in western TN"},
    {"id":"p094","name":"NIT Trichy","type":"college","district":"Tiruchirappalli","city":"Trichy","lat":10.7597,"lng":78.8153,"description":"National Institute of Technology, highly ranked"},
    {"id":"p095","name":"Madurai Kamaraj University","type":"college","district":"Madurai","city":"Madurai","lat":9.9562,"lng":78.0767,"description":"Major university in southern TN"},
    {"id":"p096","name":"Bharathiar University","type":"college","district":"Coimbatore","city":"Coimbatore","lat":11.0420,"lng":76.9360,"description":"State university in Coimbatore"},
    {"id":"p097","name":"Periyar University","type":"college","district":"Salem","city":"Salem","lat":11.7010,"lng":78.0720,"description":"State university in Salem"},
    {"id":"p098","name":"Bharathidasan University","type":"college","district":"Tiruchirappalli","city":"Trichy","lat":10.7610,"lng":78.8200,"description":"University in Trichy"},
    {"id":"p099","name":"Annamalai University","type":"college","district":"Cuddalore","city":"Chidambaram","lat":11.4020,"lng":79.7330,"description":"Oldest university in South India"},
    {"id":"p100","name":"VIT Vellore","type":"college","district":"Vellore","city":"Vellore","lat":12.9692,"lng":79.1559,"description":"Top private university in India"},

    {"id":"p110","name":"Marina Beach","type":"tourist","district":"Chennai","city":"Chennai","lat":13.0500,"lng":80.2824,"description":"Second longest urban beach in the world"},
    {"id":"p111","name":"Ooty Hill Station","type":"tourist","district":"Nilgiris","city":"Ooty","lat":11.4102,"lng":76.6950,"description":"Queen of Hill Stations, Nilgiri Mountains"},
    {"id":"p112","name":"Kodaikanal","type":"tourist","district":"Dindigul","city":"Kodaikanal","lat":10.2381,"lng":77.4892,"description":"Princess of Hill Stations"},
    {"id":"p113","name":"Mahabalipuram Shore Temple","type":"tourist","district":"Chengalpattu","city":"Mahabalipuram","lat":12.6172,"lng":80.1944,"description":"UNESCO World Heritage Site, Pallava monuments"},
    {"id":"p114","name":"Rameswaram","type":"tourist","district":"Ramanathapuram","city":"Rameswaram","lat":9.2876,"lng":79.3129,"description":"Island town, Pamban Bridge, pilgrimage center"},
    {"id":"p115","name":"Kanyakumari","type":"tourist","district":"Kanyakumari","city":"Kanyakumari","lat":8.0883,"lng":77.5385,"description":"Southernmost tip of India, sunrise and sunset views"},
    {"id":"p116","name":"Courtallam Falls","type":"tourist","district":"Tenkasi","city":"Courtallam","lat":8.9300,"lng":77.2780,"description":"Spa of South India, famous waterfalls"},
    {"id":"p117","name":"Hogenakkal Falls","type":"tourist","district":"Dharmapuri","city":"Hogenakkal","lat":12.1153,"lng":77.7780,"description":"Niagara of India, Cauvery river falls"},
    {"id":"p118","name":"Yercaud","type":"tourist","district":"Salem","city":"Yercaud","lat":11.7750,"lng":78.2040,"description":"Jewel of the South, hill station near Salem"},
    {"id":"p119","name":"Yelagiri Hills","type":"tourist","district":"Tirupattur","city":"Yelagiri","lat":12.5855,"lng":78.6391,"description":"Hill station in Vellore region"},
    {"id":"p120","name":"Valparai","type":"tourist","district":"Coimbatore","city":"Valparai","lat":10.3266,"lng":76.9559,"description":"Hill station in Anamalai Hills"},
    {"id":"p121","name":"Vedanthangal Bird Sanctuary","type":"tourist","district":"Chengalpattu","city":"Vedanthangal","lat":12.5467,"lng":79.8509,"description":"Oldest bird sanctuary in India"},
    {"id":"p122","name":"Point Calimere Wildlife Sanctuary","type":"tourist","district":"Nagapattinam","city":"Vedaranyam","lat":10.3083,"lng":79.8500,"description":"Wildlife sanctuary, flamingo habitat"},
    {"id":"p123","name":"Coonoor","type":"tourist","district":"Nilgiris","city":"Coonoor","lat":11.3530,"lng":76.7959,"description":"Hill station, tea estates, Sim's Park"},
    {"id":"p124","name":"Pichavaram Mangrove Forest","type":"tourist","district":"Cuddalore","city":"Pichavaram","lat":11.4170,"lng":79.7760,"description":"Second largest mangrove forest in the world"},
    {"id":"p125","name":"Dhanushkodi","type":"tourist","district":"Ramanathapuram","city":"Dhanushkodi","lat":9.1714,"lng":79.4225,"description":"Ghost town at the tip of Rameswaram"},

    {"id":"p130","name":"Fort St. George","type":"government","district":"Chennai","city":"Chennai","lat":13.0791,"lng":80.2876,"description":"Tamil Nadu Legislative Assembly & Secretariat"},
    {"id":"p131","name":"Collectorate, Salem","type":"government","district":"Salem","city":"Salem","lat":11.6650,"lng":78.1550,"description":"District Collectorate Office"},
    {"id":"p132","name":"Collectorate, Coimbatore","type":"government","district":"Coimbatore","city":"Coimbatore","lat":11.0050,"lng":76.9660,"description":"District Collectorate"},
    {"id":"p133","name":"Collectorate, Madurai","type":"government","district":"Madurai","city":"Madurai","lat":9.9250,"lng":78.1200,"description":"District Collectorate"},
    {"id":"p134","name":"Collectorate, Trichy","type":"government","district":"Tiruchirappalli","city":"Trichy","lat":10.8100,"lng":78.6900,"description":"District Collectorate"},
    {"id":"p135","name":"Collectorate, Tirunelveli","type":"government","district":"Tirunelveli","city":"Tirunelveli","lat":8.7150,"lng":77.7500,"description":"District Collectorate"},
    {"id":"p136","name":"Collectorate, Thanjavur","type":"government","district":"Thanjavur","city":"Thanjavur","lat":10.7860,"lng":79.1380,"description":"District Collectorate"},
    {"id":"p137","name":"Collectorate, Vellore","type":"government","district":"Vellore","city":"Vellore","lat":12.9170,"lng":79.1330,"description":"District Collectorate"},

    {"id":"p140","name":"SIPCOT Industrial Park, Hosur","type":"industry","district":"Krishnagiri","city":"Hosur","lat":12.7400,"lng":77.8300,"description":"Major industrial hub, automobile manufacturing"},
    {"id":"p141","name":"Ambattur Industrial Estate","type":"industry","district":"Chennai","city":"Chennai","lat":13.1143,"lng":80.1548,"description":"One of the largest industrial estates in Asia"},
    {"id":"p142","name":"TIDEL Park","type":"industry","district":"Chennai","city":"Chennai","lat":12.9810,"lng":80.2440,"description":"IT park, major software hub"},
    {"id":"p143","name":"Tiruppur Textile Cluster","type":"industry","district":"Tiruppur","city":"Tiruppur","lat":11.1085,"lng":77.3411,"description":"Knitwear capital of India"},
    {"id":"p144","name":"Sivakasi Fireworks Cluster","type":"industry","district":"Virudhunagar","city":"Sivakasi","lat":9.4533,"lng":77.7980,"description":"Fireworks and match industry hub"},
    {"id":"p145","name":"SIPCOT, Cuddalore","type":"industry","district":"Cuddalore","city":"Cuddalore","lat":11.7380,"lng":79.7540,"description":"Chemical and petrochemical industrial zone"},
    {"id":"p146","name":"Coimbatore Industrial Area","type":"industry","district":"Coimbatore","city":"Coimbatore","lat":11.0250,"lng":76.9700,"description":"Pump and motor manufacturing hub"},
    {"id":"p147","name":"Salem Steel Plant","type":"industry","district":"Salem","city":"Salem","lat":11.6500,"lng":78.1200,"description":"SAIL steel plant, major employer"},
    {"id":"p148","name":"Ennore Port","type":"industry","district":"Tiruvallur","city":"Ennore","lat":13.2205,"lng":80.3206,"description":"Major port for coal and container handling"},
    {"id":"p149","name":"Namakkal Egg & Poultry Cluster","type":"industry","district":"Namakkal","city":"Namakkal","lat":11.2200,"lng":78.1670,"description":"Egg city of India, poultry production hub"},
    {"id":"p150","name":"Karur Textile Hub","type":"industry","district":"Karur","city":"Karur","lat":10.9601,"lng":78.0766,"description":"Home textiles export hub"}
  ]
}
